{
  "enterprises": [
    {
      "id": "ENT-001",
      "name": "Calpine Energy Services",
      "contact": "Mary Collins",
      "email": "mary.collins@kpmg.com",
      "phone": "(555) 201-8844",
      "senderOrganizations": [
        "ORG-001",
        "ORG-004"
      ],
      "recipientOrganizations": [
        "ORG-001",
        "ORG-002",
        "ORG-003",
        "ORG-006"
      ]
    },
    {
      "id": "ENT-002",
      "name": "BDO Advisory",
      "contact": "Gavin Lee",
      "email": "gavin.lee@bdo.com",
      "phone": "(555) 201-3355",
      "senderOrganizations": [
        "ORG-002",
        "ORG-005"
      ],
      "recipientOrganizations": [
        "ORG-003",
        "ORG-004",
        "ORG-008"
      ]
    },
    {
      "id": "ENT-003",
      "name": "Constillation Energy Group",
      "contact": "Kim Patel",
      "email": "kpatel@clientservices.com",
      "phone": "(555) 409-7788",
      "senderOrganizations": [
        "ORG-003"
      ],
      "recipientOrganizations": [
        "ORG-001",
        "ORG-005",
        "ORG-007"
      ]
    }
  ],
  "organizations": [
    {
      "id": "ORG-001",
      "name": "Johnson Holdings LLC",
      "addresses": [
        {
          "id": "ADDR-001",
          "label": "Headquarters",
          "address": "123 Business Park Dr, Suite 200, Los Angeles, CA 90025",
          "default": true,
          "streetAddress": "123 Business Park Dr, Suite 200",
          "city": "Los Angeles",
          "state": "CA",
          "county": "Los Angeles County",
          "country": "USA",
          "postalCode": "90025"
        },
        {
          "id": "ADDR-002",
          "label": "Warehouse",
          "address": "456 Industrial Blvd, Los Angeles, CA 90026",
          "streetAddress": "456 Industrial Blvd",
          "city": "Los Angeles",
          "state": "CA",
          "county": "Los Angeles County",
          "country": "USA",
          "postalCode": "90026"
        },
        {
          "id": "ADDR-003",
          "label": "Billing Dept",
          "address": "789 Financial Center, Suite 500, Los Angeles, CA 90027",
          "streetAddress": "789 Financial Center, Suite 500",
          "city": "Los Angeles",
          "state": "CA",
          "county": "Los Angeles County",
          "country": "USA",
          "postalCode": "90027"
        }
      ]
    },
    {
      "id": "ORG-002",
      "name": "Smith Manufacturing Co.",
      "addresses": [
        {
          "id": "ADDR-004",
          "label": "Main Office",
          "address": "456 Industrial Way, San Francisco, CA 94105",
          "default": true,
          "streetAddress": "456 Industrial Way",
          "city": "San Francisco",
          "state": "CA",
          "county": "San Francisco County",
          "country": "USA",
          "postalCode": "94105"
        },
        {
          "id": "ADDR-005",
          "label": "Plant A",
          "address": "321 Factory Ln, Oakland, CA 94601",
          "streetAddress": "321 Factory Ln",
          "city": "Oakland",
          "state": "CA",
          "county": "Alameda County",
          "country": "USA",
          "postalCode": "94601"
        }
      ]
    },
    {
      "id": "ORG-003",
      "name": "Davis Enterprises",
      "addresses": [
        {
          "id": "ADDR-006",
          "label": "Corporate Office",
          "address": "789 Commerce St, Suite 100, Sacramento, CA 95814",
          "default": true,
          "streetAddress": "789 Commerce St, Suite 100",
          "city": "Sacramento",
          "state": "CA",
          "county": "Sacramento County",
          "country": "USA",
          "postalCode": "95814"
        }
      ]
    },
    {
      "id": "ORG-004",
      "name": "Anderson Corp",
      "addresses": [
        {
          "id": "ADDR-007",
          "label": "HQ",
          "address": "321 Market St, Suite 100, San Diego, CA 92101",
          "default": true,
          "streetAddress": "321 Market St, Suite 100",
          "city": "San Diego",
          "state": "CA",
          "county": "San Diego County",
          "country": "USA",
          "postalCode": "92101"
        },
        {
          "id": "ADDR-008",
          "label": "Operations",
          "address": "654 Operations Way, San Diego, CA 92102",
          "streetAddress": "654 Operations Way",
          "city": "San Diego",
          "state": "CA",
          "county": "San Diego County",
          "country": "USA",
          "postalCode": "92102"
        }
      ]
    },
    {
      "id": "ORG-005",
      "name": "Baker Industries",
      "addresses": [
        {
          "id": "ADDR-009",
          "label": "Main",
          "address": "654 Innovation Blvd, Irvine, CA 92618",
          "default": true,
          "streetAddress": "654 Innovation Blvd",
          "city": "Irvine",
          "state": "CA",
          "county": "Orange County",
          "country": "USA",
          "postalCode": "92618"
        }
      ]
    },
    {
      "id": "ORG-006",
      "name": "Los Angeles County Treasurer and Tax Collector",
      "addresses": [
        {
          "id": "ADDR-010",
          "label": "Main Office",
          "address": "500 W Temple St, Room 153, Los Angeles, CA 90012",
          "default": true,
          "streetAddress": "500 W Temple St, Room 153",
          "city": "Los Angeles",
          "state": "CA",
          "county": "Los Angeles County",
          "country": "USA",
          "postalCode": "90012"
        }
      ]
    },
    {
      "id": "ORG-007",
      "name": "Titus County Tax Assessor-Collector",
      "addresses": [
        {
          "id": "ADDR-011",
          "label": "Tax Office",
          "address": "106 N Van Buren Ave, Suite 101, Mount Pleasant, TX 75455",
          "default": true,
          "streetAddress": "106 N Van Buren Ave, Suite 101",
          "city": "Mount Pleasant",
          "state": "TX",
          "county": "Titus County",
          "country": "USA",
          "postalCode": "75455"
        }
      ]
    },
    {
      "id": "ORG-008",
      "name": "Harris County Tax Assessor-Collector",
      "addresses": [
        {
          "id": "ADDR-012",
          "label": "Downtown Office",
          "address": "1001 Preston St, Houston, TX 77002",
          "default": true,
          "streetAddress": "1001 Preston St",
          "city": "Houston",
          "state": "TX",
          "county": "Harris County",
          "country": "USA",
          "postalCode": "77002"
        }
      ]
    }
  ],
  "existingRecipients": [
    {
      "id": "RCPT-001",
      "name": "John Smith",
      "organization": "Johnson Holdings LLC",
      "email": "john.smith@johnsonholdings.com"
    },
    {
      "id": "RCPT-002",
      "name": "Sarah Johnson",
      "organization": "Smith Manufacturing Co.",
      "email": "sarah.j@smithmfg.com"
    },
    {
      "id": "RCPT-003",
      "name": "Michael Davis",
      "organization": "Davis Enterprises",
      "email": "mdavis@davisent.com"
    },
    {
      "id": "RCPT-004",
      "name": "Emily Anderson",
      "organization": "Anderson Corp",
      "email": "emily@andersoncorp.com"
    },
    {
      "id": "RCPT-005",
      "name": "Robert Baker",
      "organization": "Baker Industries",
      "email": "rbaker@bakerindustries.com"
    },
    {
      "id": "RCPT-006",
      "name": "Lisa Chen",
      "organization": "Johnson Holdings LLC",
      "email": "lisa.chen@johnsonholdings.com"
    },
    {
      "id": "RCPT-007",
      "name": "David Wilson",
      "organization": "Smith Manufacturing Co.",
      "email": "dwilson@smithmfg.com"
    }
  ],
  "uploadedFiles": [
    {
      "id": "PDF-001",
      "name": "Calpine Notice (4) - Copy.pdf",
      "displayName": "Calpine Energy Notice",
      "pages": 32,
      "size": "1.2 MB",
      "fileName": "Calpine Notice (4) - Copy.pdf"
    },
    {
      "id": "PDF-002",
      "name": "Vistra Houston Notice.pdf",
      "displayName": "Vistra Houston Notice",
      "pages": 18,
      "size": "1.5 MB",
      "fileName": "Vistra Houston Notice.pdf"
    },
    {
      "id": "PDF-003",
      "name": "BAUSCH & LOMB AMERICAS INC. Notice - Copy - Copy (2) - Copy.pdf",
      "displayName": "Bausch & Lomb Compliance Notice",
      "pages": 14,
      "size": "980 KB",
      "fileName": "BAUSCH & LOMB AMERICAS INC. Notice - Copy - Copy (2) - Copy.pdf"
    },
    {
      "id": "PDF-004",
      "name": "TAX BILL_VISTRA ENERGY-LUMINANT MINING COMPANY, LLC-2024-TX-TITUS CAD-3382-4.2612 - Copy_dup1 - Copy.pdf",
      "displayName": "Vistra Energy Tax Bill",
      "pages": 22,
      "size": "2.1 MB",
      "fileName": "TAX BILL_VISTRA ENERGY-LUMINANT MINING COMPANY, LLC-2024-TX-TITUS CAD-3382-4.2612 - Copy_dup1 - Copy.pdf"
    }
  ],
  "recipients": [
    {
      "id": "MAIL-JOB-001-001",
      "taskId": "TASK-JOB-001-001",
      "jobId": "JOB-001",
      "name": "Q4 Tax Returns - California",
      "recipientName": "Smith Manufacturing Co.",
      "status": "delivered",
      "deliveryType": "Certified Mail",
      "trackingNumber": "TRK-JOB-001-0001",
      "deliveredDate": "2025-01-17",
      "documents": [
        {
          "id": "DOC-JOB-001-1",
          "displayName": "Calpine Energy Notice",
          "fileName": "Calpine Notice (4) - Copy.pdf",
          "referenceKey": "Calpine Notice (4) - Copy.pdf",
          "pages": 32,
          "size": "1.2 MB",
          "source": "seed"
        }
      ],
      "mailOptions": {
        "certifiedReceipt": true,
        "returnEnvelope": false,
        "deliveryConfirmation": true,
        "coverLetter": false
      },
      "sender": {
        "enterpriseId": "ENT-001",
        "organizationId": "ORG-001",
        "organizationName": "Johnson Holdings LLC",
        "contactName": "Mary Collins",
        "email": "mary.collins@kpmg.com",
        "phone": "(555) 201-8844",
        "addressId": "ADDR-001",
        "address": {
          "id": "ADDR-001",
          "label": "Headquarters",
          "streetAddress": "123 Business Park Dr, Suite 200",
          "city": "Los Angeles",
          "state": "CA",
          "county": "Los Angeles County",
          "country": "USA",
          "postalCode": "90025"
        }
      },
      "recipient": {
        "enterpriseId": "ENT-002",
        "organizationId": "ORG-002",
        "organizationName": "Smith Manufacturing Co.",
        "contactName": "David Wilson",
        "email": "dwilson@smithmfg.com",
        "phone": "(555) 201-3355",
        "addressId": "ADDR-004",
        "address": {
          "id": "ADDR-004",
          "label": "Main Office",
          "streetAddress": "456 Industrial Way",
          "city": "San Francisco",
          "state": "CA",
          "county": "San Francisco County",
          "country": "USA",
          "postalCode": "94105"
        }
      },
      "senderEnterpriseId": "ENT-001",
      "senderContact": "Mary Collins",
      "senderEmail": "mary.collins@kpmg.com",
      "senderPhone": "(555) 201-8844",
      "senderAddress": "123 Business Park Dr, Suite 200, Los Angeles, CA 90025",
      "organizationId": "ORG-002",
      "address": "456 Industrial Way, San Francisco, CA 94105",
      "email": "dwilson@smithmfg.com",
      "phone": "(555) 201-3355",
      "sendMode": "grouped"
    },
    {
      "id": "MAIL-JOB-002-001",
      "taskId": "TASK-JOB-002-001",
      "jobId": "JOB-002",
      "name": "Annual Filings - New York",
      "recipientName": "Los Angeles County Treasurer and Tax Collector",
      "status": "in-transit",
      "deliveryType": "Certified Mail",
      "trackingNumber": "TRK-JOB-002-0001",
      "documents": [
        {
          "id": "DOC-JOB-002-1",
          "displayName": "Vistra Houston Notice",
          "fileName": "Vistra Houston Notice.pdf",
          "referenceKey": "Vistra Houston Notice.pdf",
          "pages": 18,
          "size": "1.5 MB",
          "source": "seed"
        }
      ],
      "mailOptions": {
        "certifiedReceipt": true,
        "returnEnvelope": false,
        "deliveryConfirmation": true,
        "coverLetter": false
      },
      "sender": {
        "enterpriseId": "ENT-002",
        "organizationId": "ORG-005",
        "organizationName": "Baker Industries",
        "contactName": "Gavin Lee",
        "email": "gavin.lee@bdo.com",
        "phone": "(555) 201-3355",
        "addressId": "ADDR-009",
        "address": {
          "id": "ADDR-009",
          "label": "Main",
          "streetAddress": "654 Innovation Blvd",
          "city": "Irvine",
          "state": "CA",
          "county": "Orange County",
          "country": "USA",
          "postalCode": "92618"
        }
      },
      "recipient": {
        "enterpriseId": "ENT-001",
        "organizationId": "ORG-006",
        "organizationName": "Los Angeles County Treasurer and Tax Collector",
        "contactName": "Property Tax Desk",
        "email": "taxdesk@lacounty.gov",
        "phone": "(555) 410-2200",
        "addressId": "ADDR-010",
        "address": {
          "id": "ADDR-010",
          "label": "Main Office",
          "streetAddress": "500 W Temple St, Room 153",
          "city": "Los Angeles",
          "state": "CA",
          "county": "Los Angeles County",
          "country": "USA",
          "postalCode": "90012"
        }
      },
      "senderEnterpriseId": "ENT-002",
      "senderContact": "Gavin Lee",
      "senderEmail": "gavin.lee@bdo.com",
      "senderPhone": "(555) 201-3355",
      "senderAddress": "654 Innovation Blvd, Irvine, CA 92618",
      "organizationId": "ORG-006",
      "address": "500 W Temple St, Room 153, Los Angeles, CA 90012",
      "email": "taxdesk@lacounty.gov",
      "phone": "(555) 410-2200",
      "sendMode": "grouped"
    },
    {
      "id": "MAIL-JOB-003-001",
      "taskId": "TASK-JOB-003-001",
      "jobId": "JOB-003",
      "name": "Property Tax Notices - Texas",
      "recipientName": "Titus County Tax Assessor-Collector",
      "status": "pending-approval",
      "deliveryType": "Certified Mail",
      "documents": [
        {
          "id": "DOC-JOB-003-1",
          "displayName": "Bausch & Lomb Compliance Notice",
          "fileName": "BAUSCH & LOMB AMERICAS INC. Notice - Copy - Copy (2) - Copy.pdf",
          "referenceKey": "BAUSCH & LOMB AMERICAS INC. Notice - Copy - Copy (2) - Copy.pdf",
          "pages": 14,
          "size": "980 KB",
          "source": "seed"
        }
      ],
      "mailOptions": {
        "certifiedReceipt": true,
        "returnEnvelope": false,
        "deliveryConfirmation": true,
        "coverLetter": false
      },
      "sender": {
        "enterpriseId": "ENT-003",
        "organizationId": "ORG-003",
        "organizationName": "Davis Enterprises",
        "contactName": "Kim Patel",
        "email": "kpatel@clientservices.com",
        "phone": "(555) 409-7788",
        "addressId": "ADDR-006",
        "address": {
          "id": "ADDR-006",
          "label": "Corporate Office",
          "streetAddress": "789 Commerce St, Suite 100",
          "city": "Sacramento",
          "state": "CA",
          "county": "Sacramento County",
          "country": "USA",
          "postalCode": "95814"
        }
      },
      "recipient": {
        "enterpriseId": "ENT-001",
        "organizationId": "ORG-007",
        "organizationName": "Titus County Tax Assessor-Collector",
        "contactName": "Office of the Tax Assessor",
        "email": "taxes@tituscounty.gov",
        "phone": "(555) 512-4400",
        "addressId": "ADDR-011",
        "address": {
          "id": "ADDR-011",
          "label": "Tax Office",
          "streetAddress": "106 N Van Buren Ave, Suite 101",
          "city": "Mount Pleasant",
          "state": "TX",
          "county": "Titus County",
          "country": "USA",
          "postalCode": "75455"
        }
      },
      "senderEnterpriseId": "ENT-003",
      "senderContact": "Kim Patel",
      "senderEmail": "kpatel@clientservices.com",
      "senderPhone": "(555) 409-7788",
      "senderAddress": "789 Commerce St, Suite 100, Sacramento, CA 95814",
      "organizationId": "ORG-007",
      "address": "106 N Van Buren Ave, Suite 101, Mount Pleasant, TX 75455",
      "email": "taxes@tituscounty.gov",
      "phone": "(555) 512-4400",
      "sendMode": "grouped"
    }
  ],
  "jobs": [
    {
      "id": "JOB-001",
      "name": "Q4 Tax Returns - California",
      "status": "delivered",
      "sentDate": "2025-01-15",
      "items": 245,
      "delivered": 238,
      "inTransit": 5,
      "exceptions": 2,
      "priority": "high"
    },
    {
      "id": "JOB-002",
      "name": "Annual Filings - New York",
      "status": "in-transit",
      "sentDate": "2025-01-18",
      "items": 182,
      "delivered": 45,
      "inTransit": 130,
      "exceptions": 7,
      "priority": "standard"
    },
    {
      "id": "JOB-003",
      "name": "Property Tax Notices - Texas",
      "status": "pending-approval",
      "sentDate": null,
      "items": 320,
      "delivered": 0,
      "inTransit": 0,
      "exceptions": 0,
      "priority": "standard"
    },
    {
      "id": "JOB-004",
      "name": "Business License Renewals - Florida",
      "status": "draft",
      "sentDate": null,
      "items": 89,
      "delivered": 0,
      "inTransit": 0,
      "exceptions": 0,
      "priority": "low"
    }
  ],
  "trackingEvents": [
    {
      "timestamp": "2025-01-15 09:00",
      "event": "Label Created",
      "location": "Los Angeles, CA"
    },
    {
      "timestamp": "2025-01-15 11:30",
      "event": "Picked Up",
      "location": "Los Angeles, CA"
    },
    {
      "timestamp": "2025-01-15 16:45",
      "event": "In Transit",
      "location": "Distribution Center"
    },
    {
      "timestamp": "2025-01-16 08:20",
      "event": "Out for Delivery",
      "location": "Local Post Office"
    },
    {
      "timestamp": "2025-01-17 14:32",
      "event": "Delivered",
      "location": "Recipient Address",
      "signature": "J. SMITH"
    }
  ],
  "kpis": {
    "activeJobs": 3,
    "itemsInTransit": 135,
    "deliveredToday": 238,
    "exceptions": 9
  }
}
